[{"name": "\u00d2ran M\u00f3r", "cat": "4bf58dd8d48988d155941735", "likes": 29, "lat": 55.8775497764732, "lng": -4.2897748947143555, "id": "4b47d429f964a520964026e3"}, {"name": "Ubiquitous Chip", "cat": "4bf58dd8d48988d116941735", "likes": 21, "lat": 55.87486391450842, "lng": -4.2931439048608695, "id": "4b58d626f964a520d56d28e3"}, {"name": "Starbucks", "cat": "4bf58dd8d48988d1e0931735", "likes": 6, "lat": 55.875343680381775, "lng": -4.29351, "id": "4bab2165f964a5204a963ae3"}, {"name": "West End", "cat": "4f2a25ac4b909258e854f55f", "likes": 3, "lat": 55.87343917588952, "lng": -4.288732071699786, "id": "4d8e0b39c1b1721e10532646"}, {"name": "Brel Bar Restaurant", "cat": "4bf58dd8d48988d116941735", "likes": 12, "lat": 55.87454643656764, "lng": -4.293057918548584, "id": "4b633169f964a5208b692ae3"}, {"name": "Hillhead", "cat": "4f2a25ac4b909258e854f55f", "likes": 1, "lat": 55.875310065207984, "lng": -4.293322937896499, "id": "4bf0696917880f4710472937"}, {"name": "Kember & Jones", "cat": "4bf58dd8d48988d16d941735", "likes": 10, "lat": 55.873764, "lng": -4.29546, "id": "4b742075f964a52017c92de3"}, {"name": "Tesco Metro", "cat": "4bf58dd8d48988d118951735", "likes": 3, "lat": 55.8759969764293, "lng": -4.292682409286499, "id": "4bbb52b3b35776b04fcdcb01"}, {"name": "Hillhead Bookclub", "cat": "4bf58dd8d48988d11b941735", "likes": 22, "lat": 55.877044220486354, "lng": -4.290611743927002, "id": "4bd91f5eefb2ef3b1666ec9c"}, {"name": "Waitrose", "cat": "4bf58dd8d48988d118951735", "likes": 1, "lat": 55.87729699930265, "lng": -4.2911481857299805, "id": "4b8d4963f964a52010f232e3"}, {"name": "Avenue G Caf\u00e9", "cat": "4bf58dd8d48988d16d941735", "likes": 8, "lat": 55.875938, "lng": -4.29281, "id": "4d6a7f7a1a88b1f71276385d"}, {"name": "Hunterian Museum", "cat": "4bf58dd8d48988d190941735", "likes": 6, "lat": 55.87169936883426, "lng": -4.288015365600586, "id": "4ac518cff964a52067a620e3"}, {"name": "S'mug Coffee Bar", "cat": "4bf58dd8d48988d1e0931735", "likes": 5, "lat": 55.87554556941712, "lng": -4.2926716804504395, "id": "4b49cc2df964a520c47326e3"}, {"name": "Ketchup", "cat": "4bf58dd8d48988d16c941735", "likes": 20, "lat": 55.874547, "lng": -4.292981, "id": "4b7431b4f964a52051cc2de3"}, {"name": "The Belle", "cat": "4bf58dd8d48988d116941735", "likes": 3, "lat": 55.876627432772786, "lng": -4.285813271999359, "id": "4be5f1282468c9281fce0043"}, {"name": "The Curler's Rest", "cat": "4bf58dd8d48988d155941735", "likes": 7, "lat": 55.875486825325225, "lng": -4.293433792424127, "id": "4c7954da2d3ba1437cd68dd0"}, {"name": "Tinderbox", "cat": "4bf58dd8d48988d1e0931735", "likes": 6, "lat": 55.87399870825217, "lng": -4.295225143432617, "id": "4b0ab14bf964a520762623e3"}, {"name": "The Mackintosh House", "cat": "4bf58dd8d48988d181941735", "likes": 3, "lat": 55.87276, "lng": -4.288808, "id": "4c84ade7e602b1f78912b17a"}, {"name": "Marks & Spencer", "cat": "4bf58dd8d48988d118951735", "likes": 1, "lat": 55.875623813675226, "lng": -4.293036460876465, "id": "4bfead22ca1920a18ea6eb81"}, {"name": "The Hunterian Art Gallery", "cat": "4bf58dd8d48988d1e2931735", "likes": 1, "lat": 55.87228926470556, "lng": -4.288122653961182, "id": "4c84aae8d8086dcbaf3b8b52"}, {"name": "hmv", "cat": "4bf58dd8d48988d1fe941735", "likes": 0, "lat": 55.87561215708896, "lng": -4.29298380158978, "id": "509bb9715d24ebe83a6c9258"}, {"name": "The Grosvenor Cafe", "cat": "4bf58dd8d48988d116941735", "likes": 9, "lat": 55.874805250556214, "lng": -4.292950630187988, "id": "4b7f2bb5f964a5203d1c30e3"}, {"name": "Ryman", "cat": "4bf58dd8d48988d121951735", "likes": 0, "lat": 55.87451348179037, "lng": -4.294314651328595, "id": "4d4ec23edb1b370465f9101f"}, {"name": "Terrace Lounge", "cat": "4bf58dd8d48988d1c4941735", "likes": 0, "lat": 55.87789536, "lng": -4.29127121, "id": "50ca02c2245f2d4aa8c2b9af"}, {"name": "Bobar", "cat": "4bf58dd8d48988d1c4941735", "likes": 0, "lat": 55.87779385711293, "lng": -4.290530006750398, "id": "50ca02c6245f2d4aa8c2c86c"}, {"name": "Grosvenor Cinema", "cat": "4bf58dd8d48988d17e941735", "likes": 14, "lat": 55.874623, "lng": -4.293027, "id": "4b72dfc6f964a520d78c2de3"}, {"name": "Fopp", "cat": "4bf58dd8d48988d1fe941735", "likes": 0, "lat": 55.87708033184657, "lng": -4.291555881500244, "id": "4b4ef35ff964a52094f726e3"}, {"name": "Shelter", "cat": "4bf58dd8d48988d101951735", "likes": 0, "lat": 55.877017391624136, "lng": -4.287186060503127, "id": "4dcbb1001520906ed15c6bec"}, {"name": "Nancy Smillie", "cat": "4bf58dd8d48988d128951735", "likes": 0, "lat": 55.876128, "lng": -4.291784, "id": "4d88c0241508a14375d2fe1d"}, {"name": "Demijohn", "cat": "4bf58dd8d48988d146941735", "likes": 1, "lat": 55.87702014622754, "lng": -4.291319847106934, "id": "4bdec059be5120a1fc98fe70"}]