[{"lat": 55.87486391450842, "lng": -4.2931439048608695, "id": "4b58d626f964a520d56d28e3", "name": "Ubiquitous Chip", "likes": 21}, {"lat": 55.875343680381775, "lng": -4.29351, "id": "4bab2165f964a5204a963ae3", "name": "Starbucks", "likes": 6}, {"lat": 55.87454643656764, "lng": -4.293057918548584, "id": "4b633169f964a5208b692ae3", "name": "Brel Bar Restaurant", "likes": 12}, {"lat": 55.875310065207984, "lng": -4.293322937896499, "id": "4bf0696917880f4710472937", "name": "Hillhead", "likes": 1}, {"lat": 55.87554556941712, "lng": -4.2926716804504395, "id": "4b49cc2df964a520c47326e3", "name": "S'mug Coffee Bar", "likes": 5}, {"lat": 55.874547, "lng": -4.292981, "id": "4b7431b4f964a52051cc2de3", "name": "Ketchup", "likes": 20}, {"lat": 55.875486825325225, "lng": -4.293433792424127, "id": "4c7954da2d3ba1437cd68dd0", "name": "The Curler's Rest", "likes": 7}, {"lat": 55.87399870825217, "lng": -4.295225143432617, "id": "4b0ab14bf964a520762623e3", "name": "Tinderbox", "likes": 6}, {"lat": 55.875623813675226, "lng": -4.293036460876465, "id": "4bfead22ca1920a18ea6eb81", "name": "Marks & Spencer", "likes": 1}, {"lat": 55.87561215708896, "lng": -4.29298380158978, "id": "509bb9715d24ebe83a6c9258", "name": "hmv", "likes": 0}, {"lat": 55.874805250556214, "lng": -4.292950630187988, "id": "4b7f2bb5f964a5203d1c30e3", "name": "The Grosvenor Cafe", "likes": 9}, {"lat": 55.87451348179037, "lng": -4.294314651328595, "id": "4d4ec23edb1b370465f9101f", "name": "Ryman", "likes": 0}, {"lat": 55.874623, "lng": -4.293027, "id": "4b72dfc6f964a520d78c2de3", "name": "Grosvenor Cinema", "likes": 14}, {"lat": 55.874191316892194, "lng": -4.295139312744141, "id": "4c2deb7476a7ef3bf5e1deb8", "name": "Tennents Bar", "likes": 4}, {"lat": 55.874828, "lng": -4.292830666666667, "id": "4b4a3ca9f964a520238026e3", "name": "Jinty McGuinty's", "likes": 3}, {"lat": 55.87361348810588, "lng": -4.291684627532959, "id": "4baa0ec4f964a5203f473ae3", "name": "QMU", "likes": 1}, {"lat": 55.874764237944774, "lng": -4.294513215875942, "id": "4f5bb211e4b070e047269cd0", "name": "Cafe Nardini", "likes": 8}, {"lat": 55.87513628918991, "lng": -4.29365873336792, "id": "4bcacdecb6c49c74a92b9191", "name": "Iceland", "likes": 0}, {"lat": 55.87414466, "lng": -4.294583, "id": "4b9b8145f964a520a10b36e3", "name": "Vintage Guru", "likes": 1}, {"lat": 55.87496174189843, "lng": -4.294066429138184, "id": "4c16639877cea593ac9ed360", "name": "Paperino's", "likes": 2}, {"lat": 55.87460060708008, "lng": -4.294452667236328, "id": "4dbab2fd0cb65435c531be16", "name": "British Heart Foundation", "likes": 0}, {"lat": 55.874946025599854, "lng": -4.292878977293021, "id": "4b9e84a3f964a52019eb36e3", "name": "Ashoka", "likes": 1}, {"lat": 55.874356, "lng": -4.294529, "id": "4b75b213f964a520a31d2ee3", "name": "Little Italy", "likes": 7}, {"lat": 55.87519045887949, "lng": -4.293873310089111, "id": "4d876a93651041bd58349b30", "name": "Subway", "likes": 0}, {"lat": 55.874853401805595, "lng": -4.29290771484375, "id": "4df12ea8e4cda09e6d99163d", "name": "The Wee Pub", "likes": 1}, {"lat": 55.874943, "lng": -4.293749, "id": "4efc632277c822653f4d75fc", "name": "Masala Twist", "likes": 0}, {"lat": 55.87420202210153, "lng": -4.294593716048137, "id": "4bddc549ffdec9288f59e6a1", "name": "La Vita Spuntini", "likes": 1}, {"lat": 55.874609, "lng": -4.292966, "id": "4c8bd861c37a6dcb21abf17a", "name": "The Loft", "likes": 0}, {"lat": 55.875529645416435, "lng": -4.293427285063144, "id": "4ced0a2c821254819aaa5ca1", "name": "Greggs", "likes": 0}, {"lat": 55.87560797996496, "lng": -4.292888, "id": "4dcc081dd4c0dfa030ddf225", "name": "Taco Mazama", "likes": 8}]